[{
	"PSA": "GB01",
	"matrix":{
			"green1":{
				"erc" : [[41,68],[69,94]],
				"fm" : [[4,18],[11,18]]
			},
			"yellow1": {
				"erc" : [[69,79],[80,94]],
				"fm" : [[4,10],[8,10]]
			},
			"brown1" : {
				"erc" : [80,94],
				"fm" : [4,7]
			}
		},
	"name": "Payette",
	"RAWS": {
		"101044": {
			"name": "Lodgepole",
			"lat": 45.378,
			"lon": -115.188,
			"elevation":5814,
			"highest": 85,
			"p97": 74,
			"p90": 68,
			"p80": 62,
			"p70": 58,
			"p50": 50
		},
		"101108": {
			"name": "Weiser",
			"lat": 44.847,
			"lon": -116.427,
			"elevation": 3832,
			"highest": 102,
			"p97": 96,
			"p90": 93,
			"p80": 89,
			"p70": 85,
			"p50": 76
		},
		"101109": {
			"name": "Snake",
			"lat": 45.1,
			"lon": -116.738,
			"elevation": 4712,
			"highest": 100,
			"p97": 95,
			"p90": 90,
			"p80": 85,
			"p70": 80,
			"p50": 72
		},
		"101220": {
			"name": "Teapot",
			"lat": 44.9043300,
			"lon": -115.7385800,
			"elevation": 5120,
			"highest": "",
			"p97": "",
			"p90": "",
			"p80": "",
			"p70": "",
			"p50": ""
		},
		"101223": {
			"name": "Ski Hill",
			"lat": 44.943,
			"lon": -116.188,
			"elevation": 5297,
			"highest": 93,
			"p97": 84,
			"p90": 80,
			"p80": 75,
			"p70": 70,
			"p50": 58
		},
		"101224": {
			"name": "Taylor Ranch",
			"lat": 45.104,
			"lon": -114.849,
			"elevation": 3949,
			"highest": 94,
			"p97": 90,
			"p90": 84,
			"p80": 81,
			"p70": 76,
			"p50": 69
		},
		"101402": {
			"name": "Catfish",
			"lat": 44.319,
			"lon": -117.168,
			"elevation": 3570,
			"highest": 105,
			"p97": 98,
			"p90": 94,
			"p80": 91,
			"p70": 88,
			"p50": 80
		}
	}
}, {
	"PSA": "GB02",
	"matrix":{
			"green1":{
				"erc" : [[41,67],[68,94]],
				"fm" : [[4,9],[10,17]]
			},
			"yellow1": {
				"erc" : [[68,80],[81,94]],
				"fm" : [[4,9],[7,9]]
			},
			"brown1" : {
				"erc" : [81,94],
				"fm" : [4,7]
			}
		},
	"name": "Central Idaho",
	"RAWS": {
		"101303": {
			"name": "Indianola",
			"lat": 45.401,
			"lon": -114.163,
			"elevation": 3529,
			"highest": 97,
			"p97": 85,
			"p90": 79,
			"p80": 75,
			"p70": 68,
			"p50": 67
		},
		"101310": {
			"name": "Salmon",
			"lat": 45.15,
			"lon": -113.945,
			"elevation": 4960,
			"highest": 97,
			"p97": 89,
			"p90": 86,
			"p80": 81,
			"p70": 75,
			"p50": 73
		},
		"101311": {
			"name": "Skull",
			"lat": 45.336,
			"lon": -114.502,
			"elevation": 5878,
			"highest": 97,
			"p97": 89,
			"p90": 84,
			"p80": 78,
			"p70": 75,
			"p50": 66
		},
		"101312": {
			"name": "Leadore",
			"lat": 44.702,
			"lon": -113.347,
			"elevation": 6000,
			"highest": 94,
			"p97": 87,
			"p90": 81,
			"p80": 77,
			"p70": 72,
			"p50": 65
		},
		"101314": {
			"name": "Ezra",
			"lat": 44.849,
			"lon": -114.026,
			"elevation": 6405,
			"highest": 98,
			"p97": 93,
			"p90": 88,
			"p80": 83,
			"p70": 78,
			"p50": 70
		},
		"101315": {
			"name": "Kriley Creek",
			"lat": 45.356,
			"lon": -113.895,
			"elevation": 5200,
			"highest": 97,
			"p97": 92,
			"p90": 87,
			"p80": 83,
			"p70": 77,
			"p50": 68
		},
		"101316": {
			"name": "Red Rock Peak",
			"lat": 44.988,
			"lon": -114.418,
			"elevation": 7910,
			"highest": 98,
			"p97": 91,
			"p90": 86,
			"p80": 78,
			"p70": 68,
			"p50": 57
		},
		"101803": {
			"name": "Challis",
			"lat": 44.8330000,
			"lon": -114.3330000,
			"elevation": 5171,
			"highest": "",
			"p97": "",
			"p90": "",
			"p80": "",
			"p70": "",
			"p50": ""
		},
		"101805": {
			"name": "Little Creek",
			"lat": 44.723,
			"lon": -114.996,
			"elevation": 4575,
			"highest": 95,
			"p97": 90,
			"p90": 86,
			"p80": 83,
			"p70": 78,
			"p50": 69
		}
	}
}, {
	"PSA": "GB03",
	"name": "SW Idaho",
	"matrix":{
      "green1":{
        "erc" : [[41,78],[79,101]],
        "fm" : [[3,17],[9,17]]
      },
      "yellow1": {
        "erc" : [[79,88],[79,101]],
        "fm" : [[3,8],[7,8]]
      },
      "brown1" : {
        "erc" : [89,101],
        "fm" : [3,6]
      }
    },
	"RAWS": {
		"102601": {
			"name": "Boise",
			"lat": 43.567,
			"lon": -116.201,
			"elevation": 2838,
			"highest": 95,
			"p97": 89,
			"p90": 87,
			"p80": 85,
			"p70": 82,
			"p50": 75
		},
		"102709": {
			"name": "Mountain Home",
			"lat": 43.028,
			"lon": -115.87,
			"elevation": 3350,
			"highest": 100,
			"p97": 93,
			"p90": 91,
			"p80": 89,
			"p70": 88,
			"p50": 80
		},
		"103207": {
			"name": "Brace Flat",
			"lat": 42.35,
			"lon": -116.686,
			"elevation": 4900,
			"highest": 113,
			"p97": 102,
			"p90": 99,
			"p80": 94,
			"p70": 90,
			"p50": 80
		},
		"103208": {
			"name": "Triangle",
			"lat": 42.819,
			"lon": -116.586,
			"elevation": 5330,
			"highest": 104,
			"p97": 93,
			"p90": 88,
			"p80": 84,
			"p70": 80,
			"p50": 69
		},
		"103210": {
			"name": "Pole Creek",
			"lat": 42.052,
			"lon": -115.768,
			"elevation": 5660,
			"highest": 102,
			"p97": 96,
			"p90": 93,
			"p80": 91,
			"p70": 87,
			"p50": 78
		},
		"103211": {
			"name": "Sho-Pai",
			"lat": 42.02,
			"lon": -116.211,
			"elevation": "",
			"highest": 98,
			"p97": 91,
			"p90": 89,
			"p80": 84,
			"p70": 83,
			"p50": 78
		}
	}
}, {
	"PSA": "GB04",
	"name": "Boise Mtns",
	"matrix":{
      "green1":{
        "erc" : [[41,82],[83,101]],
        "fm" : [[3,17],[8,17]]
      },
      "yellow1": {
        "erc" : [[83,88],[89,101]],
        "fm" : [[3,7],[7,7]]
      },
      "brown1" : {
        "erc" : [89,101],
        "fm" : [3,6]
      }
    },
	"RAWS": {
		"101222": {
			"name": "Pine Creek Pass",
			"lat": 44.25,
			"lon": -116.183,
			"elevation": "",
			"highest": 100,
			"p97": 92,
			"p90": 88,
			"p80": 83,
			"p70": 77,
			"p50": 70
		},
		"101708": {
			"name": "Town Creek",
			"lat": 43.944,
			"lon": -115.917,
			"elevation": "",
			"highest": 99,
			"p97": 87,
			"p90": 83,
			"p80": 77,
			"p70": 71,
			"p50": 61
		},
		"101710": {
			"name": "Little Anderson",
			"lat": 44.091,
			"lon": -115.881,
			"elevation": "",
			"highest": 102,
			"p97": 90,
			"p90": 86,
			"p80": 80,
			"p70": 75,
			"p50": 67
		},
		"102712": {
			"name": "Wagon Town",
			"lat": 43.573,
			"lon": -115.327,
			"elevation": "",
			"highest": 104,
			"p97": 97,
			"p90": 92,
			"p80": 87,
			"p70": 83,
			"p50": 73
		}
	}
}, {
	"PSA": "GB05",
	"name": "Northern Sawtooth",
	"matrix":{
      "green1":{
        "erc" : [[41,68],[69,90]],
        "fm" : [[4,18],[9,18]]
      },
      "yellow1": {
        "erc" : [[69,75],[76,90]],
        "fm" : [[4,8],[8,8]]
      },
      "brown1" : {
        "erc" : [76,90],
        "fm" : [4,7]
      }
    },
	"RAWS": {
		"101809": {
			"name": "Stanley Ranger",
			"lat": 44.169,
			"lon": -114.926,
			"elevation": "",
			"highest": 85,
			"p97": 75,
			"p90": 71,
			"p80": 62,
			"p70": 57,
			"p50": 50
		},
		"101812": "Horton Peak",
		"102802": {
			"name": "Fleck Summit",
			"lat": 43.62,
			"lon": -114.899,
			"elevation": "",
			"highest": 98,
			"p97": 90,
			"p90": 86,
			"p80": 83,
			"p70": 78,
			"p50": 67
		},
		"102903": {
			"name": "North Fork",
			"lat": 43.79,
			"lon": -114.421,
			"elevation": "",
			"highest": 88,
			"p97": 84,
			"p90": 80,
			"p80": 76,
			"p70": 69,
			"p50": 62
		}
	}
}, {
	"PSA": "GB06",
	"name": "Magic Valley",
	"matrix":{
      "green1":{
        "erc" : [[0,79],[80,101]],
        "fm" : [[0,18],[9,18]]
      },
      "yellow1": {
        "erc" : [[80,87],[88,101]],
        "fm" : [[0,8],[7,8]]
      },
      "brown1" : {
        "erc" : [88,200],
        "fm" : [0,6]
      }
    },
	"RAWS": {
		"102711": {
			"name": "Deer Haven",
			"lat": 43.174,
			"lon": -115.152,
			"elevation": "",
			"highest": 110,
			"p97": 102,
			"p90": 97,
			"p80": 95,
			"p70": 92,
			"p50": 90
		},
		"102907": {
			"name": "Potter Butte",
			"lat": 43.226,
			"lon": -113.574,
			"elevation": "",
			"highest": 111,
			"p97": 98,
			"p90": 93,
			"p80": 89,
			"p70": 85,
			"p50": 76
		},
		"103205": {
			"name": "Horse Butte",
			"lat": 42.418,
			"lon": -115.202,
			"elevation": "",
			"highest": 106,
			"p97": 98,
			"p90": 95,
			"p80": 90,
			"p70": 86,
			"p50": 80
		},
		"103209": {
			"name": "Twin Butte",
			"lat": 42.691,
			"lon": -115.195,
			"elevation": "",
			"highest": 107,
			"p97": 99,
			"p90": 96,
			"p80": 93,
			"p70": 91,
			"p50": 85
		},
		"103403": {
			"name": "Rock Lake",
			"lat": 42.973,
			"lon": -114.064,
			"elevation": "",
			"highest": 103,
			"p97": 94,
			"p90": 90,
			"p80": 87,
			"p70": 85,
			"p50": 78
		},
		"104104": {
			"name": "Raft River",
			"lat": 42.548,
			"lon": -113.259,
			"elevation":4501,
			"highest": 90,
			"p97": 82,
			"p90": 79,
			"p80": 74,
			"p70": 73,
			"p50": 65
		}
	}
}, {
	"PSA": "GB07",
	"name": "Southern Sawtooth",
	"matrix":{
      "green1":{
        "erc" : [[0,77],[78,200]],
        "fm" : [[0,18],[9,19]]
      },
      "yellow1": {
        "erc" : [[78,84],[85,200]],
        "fm" : [[0,8],[7,8]]
      },
      "brown1" : {
        "erc" : [85,200],
        "fm" : [0,6]
      }
    },
	"RAWS": {
		"104004": {
			"name": "Trail Gulch",
			"lat": 42.3,
			"lon": -114.317,
			"elevation": "",
			"highest": 101,
			"p97": 96,
			"p90": 92,
			"p80": 89,
			"p70": 86,
			"p50": 79
		},
		"104006": {
			"name": "Bull Springs",
			"lat": 42.083,
			"lon": -114.483,
			"elevation": "",
			"highest": 91,
			"p97": 84,
			"p90": 79,
			"p80": 74,
			"p70": 71,
			"p50": 63
		},
		"104103": {
			"name": "Moberg Canyon",
			"lat": 42.02,
			"lon": -113.09,
			"elevation": "",
			"highest": 103,
			"p97": 96,
			"p90": 91,
			"p80": 86,
			"p70": 82,
			"p50": 76
		},
		"104105": {
			"name": "Goose Creek",
			"lat": 42.095,
			"lon": -113.896,
			"elevation": "",
			"highest": 100,
			"p97": 92,
			"p90": 88,
			"p80": 83,
			"p70": 82,
			"p50": 79
		}
	}
}, {
	"PSA": "GB08",
	"name": "Upper Snake River",
	"matrix":{
      "green1":{
        "erc" : [[0,72],[73,200]],
        "fm" : [[0,19],[10,100]]
      },
      "yellow1": {
        "erc" : [[73,84],[85,200]],
        "fm" : [[0,9],[7,9]]
      },
      "brown1" : {
        "erc" : [85,200],
        "fm" : [3,6]
      }
    },
	"RAWS": {
		"103703": {
			"name": "Crystal",
			"lat": 42.983,
			"lon": -113.167,
			"elevation": "",
			"highest": 103,
			"p97": 94,
			"p90": 90,
			"p80": 86,
			"p70": 82,
			"p50": 77
		},
		"103902": {
			"name": "Grace",
			"lat": 42.537,
			"lon": -111.855,
			"elevation": "",
			"highest": 98,
			"p97": 91,
			"p90": 86,
			"p80": 81,
			"p70": 76,
			"p50": 70
		},
		"103903": {
			"name": "Pole Canyon",
			"lat": 42.894,
			"lon": -111.841,
			"elevation": "",
			"highest": 96,
			"p97": 89,
			"p90": 84,
			"p80": 79,
			"p70": 74,
			"p50": 66
		},
		"104006": {
			"name": "Bull Springs",
			"lat": 42.083,
			"lon": -114.483,
			"elevation": "",
			"highest": 91,
			"p97": 84,
			"p90": 79,
			"p80": 74,
			"p70": 71,
			"p50": 63
		},
		"104203": {
			"name": "Flint Creek",
			"lat": 42.079,
			"lon": -112.183,
			"elevation": "",
			"highest": 115,
			"p97": 99,
			"p90": 93,
			"p80": 86,
			"p70": 82,
			"p50": 75
		}
	}
}, {
	"PSA": "GB09",
	"name": "Eastern Idaho Highlands",
	"matrix":{
      "green1":{
        "erc" : [[0,65],[66,200]],
        "fm" : [[0,200],[10,200]]
      },
      "yellow1": {
        "erc" : [[66,73],[74,200]],
        "fm" : [[0,9],[8,9]]
      },
      "brown1" : {
        "erc" : [74,200],
        "fm" : [0,7]
      }
    },
	"RAWS": {
		"102004": {
			"name": "3 Mile",
			"lat": 44.396,
			"lon": -112.108,
			"elevation": "",
			"highest": 90,
			"p97": 84,
			"p90": 78,
			"p80": 72,
			"p70": 66,
			"p50": 60
		},
		"102301": {
			"name": "Moody",
			"lat": 43.65,
			"lon": -111.576,
			"elevation": "",
			"highest": 95,
			"p97": 84,
			"p90": 79,
			"p80": 74,
			"p70": 69,
			"p50": 63
		},
		"103904": {
			"name": "Diamond Flat",
			"lat": 43.65,
			"lon": -111.576,
			"elevation": 7500,
			"highest": 95,
			"p97": 84,
			"p90": 79,
			"p80": 74,
			"p70": 69,
			"p50": 63
		}
	}
}, {
	"PSA": "GB10",
	"name": "Western Wyoming",
	"matrix":{
      "green1":{
        "erc" : [[0,56],[57,200]],
        "fm" : [[0,200],[12,200]]
      },
      "yellow1": {
        "erc" : [[57,66],[67,200]],
        "fm" : [[0,11],[9,11]]
      },
      "brown1" : {
        "erc" : [67,200],
        "fm" : [0,8]
      }
    },
	"RAWS": {
		"100708": "Kelly",
		"480707": {
			"name": "Burro Hill",
			"lat": 43.84,
			"lon": -110.371,
			"elevation": "",
			"highest": 81,
			"p97": 77,
			"p90": 71,
			"p80": 64,
			"p70": 59,
			"p50": 51
		},
		"480708": {
			"name": "Grand Teton",
			"lat": 43.724,
			"lon": -110.71,
			"elevation": "",
			"highest": 78,
			"p97": 73,
			"p90": 65,
			"p80": 61,
			"p70": 55,
			"p50": 47
		},
		"480709": "Coyote Meadows",
		"481302": {
			"name": "Hoback",
			"lat": 43.22,
			"lon": -110.423,
			"elevation": "",
			"highest": 53,
			"p97": 50,
			"p90": 48,
			"p80": 47,
			"p70": 45,
			"p50": 40
		},
		"481306": {
			"name": "Snider Basin",
			"lat": 42.491,
			"lon": -110.527,
			"elevation": "",
			"highest": 73,
			"p97": 65,
			"p90": 55,
			"p80": 50,
			"p70": 45,
			"p50": 39
		},
		"481307": {
			"name": "Raspberry",
			"lat": 43.472,
			"lon": -110.018,
			"elevation": "",
			"highest": 79,
			"p97": 72,
			"p90": 65,
			"p80": 57,
			"p70": 53,
			"p50": 43
		}
	}
}, {
	"PSA": "GB11",
	"name": "Southern Sierra Front",
	"matrix":{
      "green1":{
        "erc" : [[0,81],[82,200]],
        "fm" : [[0,200],[8,100]]
      },
      "yellow1": {
        "erc" : [[82,93],[94,200]],
        "fm" : [[0,7],[6,7]]
      },
      "brown1" : {
        "erc" : [94,103],
        "fm" : [0,5]
      }
    },
	"RAWS": {
		"42802": {
			"name": "Markleville",
			"lat": 38.685,
			"lon": -119.768,
			"elevation": "",
			"highest": 101,
			"p97": 97,
			"p90": 93,
			"p80": 90,
			"p70": 87,
			"p50": 80
		},
		"43707": {
			"name": "Walker",
			"lat": 38.57,
			"lon": -119.455,
			"elevation": "",
			"highest": 110,
			"p97": 106,
			"p90": 103,
			"p80": 100,
			"p70": 98,
			"p50": 94
		},
		"260117": "Knox 2",
		"437202": "Bridgeport"
	}
}, {
	"PSA": "GB12",
	"name": "Northern Sierra Front",
	"matrix":{
      "green1":{
        "erc" : [[0,79],[80,200]],
        "fm" : [[0,100],[9,100]]
      },
      "yellow1": {
        "erc" : [[80,86],[87,200]],
        "fm" : [[0,8],[7,8]]
      },
      "brown1" : {
        "erc" : [87,200],
        "fm" : [0,6]
      }
    },
	"RAWS": {
		"40724": {
			"name": "Doyle",
			"lat": 40.059,
			"lon": -120.094,
			"elevation": 4288,
			"highest": 106,
			"p97": 100,
			"p90": 96,
			"p80": 93,
			"p70": 89,
			"p50": 82
		},
		"41302": {
			"name": "Dog Valley",
			"lat": 39.572,
			"lon": -120.038,
			"elevation": 6175,
			"highest": 97,
			"p97": 92,
			"p90": 87,
			"p80": 83,
			"p70": 80,
			"p50": 71
		},
		"260108": {
			"name": "Galena",
			"lat": 39.382,
			"lon": -119.815,
			"elevation": "",
			"highest": 105,
			"p97": 100,
			"p90": 97,
			"p80": 95,
			"p70": 92,
			"p50": 87
		},
		"260114": {
			"name": "Desert Springs",
			"lat": 39.674,
			"lon": -119.768,
			"elevation": "",
			"highest": 110,
			"p97": 104,
			"p90": 100,
			"p80": 97,
			"p70": 95,
			"p50": 89
		},
		"261204": {
			"name": "Fish Springs",
			"lat": 38.925,
			"lon": -119.641,
			"elevation": "",
			"highest": 112,
			"p97": 106,
			"p90": 100,
			"p80": 96,
			"p70": 94,
			"p50": 88
		}
	}
}, {
	"PSA": "GB13",
	"name": "Lahontan Basin",
	"matrix":{
      "green1":{
        "erc" : [[0,83],[84,200]],
        "fm" : [[0,200],[7,200]]
      },
      "yellow1": {
        "erc" : [[84,90],[91,200]],
        "fm" : [[0,6],[5,6]]
      },
      "brown1" : {
        "erc" : [91,200],
        "fm" : [0,4]
      }
    },
	"RAWS": {
		"260504": {
			"name": "Red Butte",
			"lat": 39.65,
			"lon": -117.317,
			"elevation": 4993,
			"highest": 114,
			"p97": 108,
			"p90": 105,
			"p80": 102,
			"p70": 99,
			"p50": 91
		},
		"260701": {
			"name": "Dead Camel",
			"lat": 39.256,
			"lon": -118.96,
			"elevation": "",
			"highest": 113,
			"p97": 106,
			"p90": 103,
			"p80": 100,
			"p70": 97,
			"p50": 92
		}
	}
}, {
	"PSA": "GB14",
	"name": "Northwest Nevada",
	"matrix":{
      "green1":{
        "erc" : [[0,88],[89,200]],
        "fm" : [[0,200],[9,200]]
      },
      "yellow1": {
        "erc" : [[89,94],[95,200]],
        "fm" : [[0,8],[6,8]]
      },
      "brown1" : {
        "erc" : [95,200],
        "fm" : [0,5]
      }
    },
	"RAWS": {
		"260112": "Juniper Springs",
		"260202": {
			"name": "Bluewing",
			"lat": 40.335,
			"lon": -119.09,
			"elevation": "",
			"highest": 113,
			"p97": 107,
			"p90": 105,
			"p80": 103,
			"p70": 101,
			"p50": 96
		},
		"260203": {
			"name": "Dry Canyon",
			"lat": 41.492,
			"lon": -119.117,
			"elevation": "",
			"highest": 110,
			"p97": 104,
			"p90": 101,
			"p80": 98,
			"p70": 95,
			"p50": 87
		},
		"260204": {
			"name": "Morey Creek",
			"lat": 41.456,
			"lon": -117.633,
			"elevation": "",
			"highest": 122,
			"p97": 110,
			"p90": 105,
			"p80": 101,
			"p70": 97,
			"p50": 87
		},
		"260206": {
			"name": "Texas Spring",
			"lat": 41.802,
			"lon": -118.451,
			"elevation": "",
			"highest": 112,
			"p97": 105,
			"p90": 102,
			"p80": 98,
			"p70": 94,
			"p50": 83
		},
		"260207": {
			"name": "Double H",
			"lat": 41.652,
			"lon": -118.044,
			"elevation": "",
			"highest": 105,
			"p97": 101,
			"p90": 96,
			"p80": 92,
			"p70": 89,
			"p50": 80
		},
		"260208": {
			"name": "Majuba",
			"lat": 40.773,
			"lon": -118.52,
			"elevation": "",
			"highest": 105,
			"p97": 102,
			"p90": 99,
			"p80": 96,
			"p70": 91,
			"p50": 85
		},
		"": "Buffalo Creek"
	}
}, {
	"PSA": "GB15",
	"name": "Central Nevada Mountains",
	"matrix":{
      "green1":{
        "erc" : [[0,88],[89,200]],
        "fm" : [[0,200],[9,200]]
      },
      "yellow1": {
        "erc" : [[89,94],[95,112]],
        "fm" : [[0,8],[6,8]]
      },
      "brown1" : {
        "erc" : [95,200],
        "fm" : [0,5]
      }
    },
	"RAWS": {
		"260501": "Austin",
		"260503": {
			"name": "Desatoya",
			"lat": 39.309,
			"lon": -117.584,
			"elevation": "",
			"highest": 112,
			"p97": 105,
			"p90": 100,
			"p80": 97,
			"p70": 94,
			"p50": 87
		},
		"260601": {
			"name": "Combs Canyon",
			"lat": 39.633,
			"lon": -116.3,
			"elevation": "",
			"highest": 111,
			"p97": 104,
			"p90": 101,
			"p80": 97,
			"p70": 93,
			"p50": 85
		},
		"260603": {
			"name": "Coils Creek",
			"lat": 39.833,
			"lon": -116.492,
			"elevation": "",
			"highest": 107,
			"p97": 102,
			"p90": 98,
			"p80": 93,
			"p70": 89,
			"p50": 80
		}
	}
}, {
	"PSA": "GB16",
	"name": "Central Nevada Desert",
	"matrix":{
      "green1":{
        "erc" : [[61,82],[83,200]],
        "fm" : [[0,200],[9,200]]
      },
      "yellow1": {
        "erc" : [[83,93],[94,200]],
        "fm" : [[0,8],[6,8]]
      },
      "brown1" : {
        "erc" : [94,200],
        "fm" : [0,5]
      }
    },
	"RAWS": {
		"260810": "Quima Peak",
		"261404": {
			"name": "Pancake",
			"lat": 38.304,
			"lon": -116.193,
			"elevation": "",
			"highest": 119,
			"p97": 113,
			"p90": 106,
			"p80": 102,
			"p70": 99,
			"p50": 92
		},
		"261408": {
			"name": "Buddy Adams",
			"lat": 37.021,
			"lon": -116.609,
			"elevation": "",
			"highest": 114,
			"p97": 110,
			"p90": 108,
			"p80": 105,
			"p70": 102,
			"p50": 96
		}
	}
}, {
	"PSA": "GB17",
	"name": "West Elko",
	"matrix":{
      "green1":{
        "erc" : [[0,80],[81,200]],
        "fm" : [[0,200],[9,200]]
      },
      "yellow1": {
        "erc" : [[81,92],[93,200]],
        "fm" : [[0,8],[6,8]]
      },
      "brown1" : {
        "erc" : [93,200],
        "fm" : [0,5]
      }
    },
	"RAWS": {
		"260305": {
			"name": "Long Hollow",
			"lat": 41.554,
			"lon": -116.231,
			"elevation": "",
			"highest": 109,
			"p97": 103,
			"p90": 99,
			"p80": 95,
			"p70": 89,
			"p50": 76
		},
		"260310": {
			"name": "Antelope Lake",
			"lat": 41.685,
			"lon": -116.764,
			"elevation": "",
			"highest": 110,
			"p97": 104,
			"p90": 100,
			"p80": 95,
			"p70": 90,
			"p50": 78
		},
		"260505": {
			"name": "Beacon Light",
			"lat": 40.558,
			"lon": -116.758,
			"elevation": "",
			"highest": 116,
			"p97": 111,
			"p90": 108,
			"p80": 105,
			"p70": 102,
			"p50": 94
		}
	}
}, {
	"PSA": "GB18",
	"name": "Jarbridge",
	"matrix":{
      "green1":{
        "erc" : [[0,73],[74,200]],
        "fm" : [[0,200],[10,209]]
      },
      "yellow1": {
        "erc" : [[74,86],[87,200]],
        "fm" : [[0,9],[7,9]]
      },
      "brown1" : {
        "erc" : [87,200],
        "fm" : [0,6]
      }
    },
	"RAWS": {
		"260305": {
			"name": "Long Hollow",
			"lat": 41.554,
			"lon": -116.231,
			"elevation": "",
			"highest": 109,
			"p97": 103,
			"p90": 99,
			"p80": 95,
			"p70": 89,
			"p50": 76
		},
		"260309": {
			"name": "Rock Spring Creek",
			"lat": 41.643,
			"lon": -114.643,
			"elevation": "",
			"highest": 99,
			"p97": 94,
			"p90": 88,
			"p80": 84,
			"p70": 80,
			"p50": 71
		},
		"260315": {
			"name": "Stag Mountain",
			"lat": 41.518,
			"lon": -115.393,
			"elevation": "",
			"highest": 101,
			"p97": 96,
			"p90": 93,
			"p80": 87,
			"p70": 82,
			"p50": 71
		}
	}
}, {
	"PSA": "GB19",
	"name": "Ruby",
	"matrix":{
      "green1":{
        "erc" : [[0,77],[78,200]],
        "fm" : [[0,200],[10,200]]
      },
      "yellow1": {
        "erc" : [[78,88],[89,200]],
        "fm" : [[0,9],[7,9]]
      },
      "brown1" : {
        "erc" : [89,200],
        "fm" : [0,6]
      }
    },
	"RAWS": {
		"260306": {
			"name": "Spruce Mountain",
			"lat": 40.44,
			"lon": -114.811,
			"elevation": "",
			"highest": 115,
			"p97": 110,
			"p90": 103,
			"p80": 98,
			"p70": 93,
			"p50": 84
		},
		"260308": {
			"name": "Spring Gulch",
			"lat": 40.593,
			"lon": -114.203,
			"elevation": "",
			"highest": 111,
			"p97": 104,
			"p90": 99,
			"p80": 95,
			"p70": 92,
			"p50": 85
		},
		"260314": {
			"name": "Crane Springs",
			"lat": 40.46,
			"lon": -115.85,
			"elevation": "",
			"highest": 107,
			"p97": 103,
			"p90": 98,
			"p80": 93,
			"p70": 90,
			"p50": 81
		}
	}
}, {
	"PSA": "GB20",
	"name": "Ely North",
	"matrix":{
      "green1":{
        "erc" : [[0,78],[78,200]],
        "fm" : [[0,200],[9,200]]
      },
      "yellow1": {
        "erc" : [[79,95],[96,200]],
        "fm" : [[0,8],[6,8]]
      },
      "brown1" : {
        "erc" : [96,200],
        "fm" : [0,5]
      }
    },
	"RAWS": {
		"260804": {
			"name": "Alligator Ridge",
			"lat": 39.737,
			"lon": -115.518,
			"elevation": "",
			"highest": 111,
			"p97": 104,
			"p90": 99,
			"p80": 95,
			"p70": 91,
			"p50": 83
		},
		"260805": {
			"name": "Cedar Pass",
			"lat": 39.757,
			"lon": -114.149,
			"elevation": "",
			"highest": 112,
			"p97": 104,
			"p90": 97,
			"p80": 92,
			"p70": 88,
			"p50": 81
		},
		"260807": {
			"name": "Cattle Camp",
			"lat": 38.904,
			"lon": -114.814,
			"elevation": "",
			"highest": 108,
			"p97": 98,
			"p90": 92,
			"p80": 87,
			"p70": 83,
			"p50": 77
		},
		"261406": {
			"name": "Currant Creek",
			"lat": 38.767,
			"lon": -115.417,
			"elevation": "",
			"highest": 117,
			"p97": 111,
			"p90": 106,
			"p80": 102,
			"p70": 98,
			"p50": 93
		}
	}
}, {
	"PSA": "GB21",
	"name": "Ely South",
	"matrix":{
      "green1":{
        "erc" : [[0,77],[78,200]],
        "fm" : [[0,200],[11,200]]
      },
      "yellow1": {
        "erc" : [[78,84],[85,200]],
        "fm" : [[0,10],[8,10]]
      },
      "brown1" : {
        "erc" : [85,200],
        "fm" : [0,7]
      }
    },
	"RAWS": {
		"261603": {
			"name": "Coyote Wash",
			"lat": 38.283,
			"lon": -114.758,
			"elevation": "",
			"highest": 115,
			"p97": 108,
			"p90": 101,
			"p80": 95,
			"p70": 91,
			"p50": 83
		},
		"261604": {
			"name": "Kane Springs",
			"lat": 37.25,
			"lon": -114.708,
			"elevation": "",
			"highest": 122,
			"p97": 118,
			"p90": 112,
			"p80": 108,
			"p70": 105,
			"p50": 99
		},
		"261608": {
			"name": "Immigration Wash",
			"lat": 37.921,
			"lon": -114.16,
			"elevation": "",
			"highest": 115,
			"p97": 108,
			"p90": 100,
			"p80": 95,
			"p70": 91,
			"p50": 84
		}
	}
}, {
	"PSA": "GB22",
	"name": "Amargosa",
	"matrix":{
      "green1":{
        "erc" : [[0,84],[85,200]],
        "fm" : [[0,200],[10,200]]
      },
      "yellow1": {
        "erc" : [[85,94],[95,200]],
        "fm" : [[0,9],[7,9]]
      },
      "brown1" : {
        "erc" : [95,200],
        "fm" : [0,6]
      }
    },
	"RAWS": {
		"261408": {
			"name": "Buddy Adams",
			"lat": 37.021,
			"lon": -116.609,
			"elevation": "",
			"highest": 114,
			"p97": 110,
			"p90": 108,
			"p80": 105,
			"p70": 102,
			"p50": 96
		}
	}
}, {
	"PSA": "GB23",
	"name": "Spring Mountain",
	"matrix":{
      "green1":{
        "erc" : [[0,81],[82,200]],
        "fm" : [[0,200],[10,200]]
      },
      "yellow1": {
        "erc" : [[82,92],[93,200]],
        "fm" : [[0,9],[6,9]]
      },
      "brown1" : {
        "erc" : [93,200],
        "fm" : [0,5]
      }
    },
	"RAWS": {
		"261702": {
			"name": "Kyle Canyon",
			"lat": 36.267,
			"lon": -115.6,
			"elevation": "",
			"highest": 127,
			"p97": 112,
			"p90": 105,
			"p80": 100,
			"p70": 95,
			"p50": 85
		},
		"261708": {
			"name": "Mountain Springs",
			"lat": 36.333,
			"lon": -115.867,
			"elevation": "",
			"highest": 115,
			"p97": 107,
			"p90": 103,
			"p80": 99,
			"p70": 95,
			"p50": 88
		}
	}
}, {
	"PSA": "GB24",
	"name": "Southern Nevada Desert",
	"matrix":{
      "green1":{
        "erc" : [[0,89],[90,200]],
        "fm" : [[0,200],[8,200]]
      },
      "yellow1": {
        "erc" : [[90,96],[97,200]],
        "fm" : [[0,7],[6,7]]
      },
      "brown1" : {
        "erc" : [97,200],
        "fm" : [0,5]
      }
    },
	"RAWS": {
		"101316": {
			"name": "Red Rock",
			"lat": 44.988,
			"lon": -114.418,
			"elevation": "",
			"highest": 98,
			"p97": 91,
			"p90": 86,
			"p80": 78,
			"p70": 68,
			"p50": 57
		}
	}
}, {
	"PSA": "GB25",
	"name": "Northwest Utah",
	"matrix":{
      "green1":{
        "erc" : [[0,76],[77,200]],
        "fm" : [[0,200],[8,200]]
      },
      "yellow1": {
        "erc" : [[77,86],[87,200]],
        "fm" : [[0,7],[77,77]]
      },
      "brown1" : {
        "erc" : [87,200],
        "fm" : [0,6]
      }
    },
	"RAWS": {
		"420403": {
			"name": "Bues Canyon",
			"lat": 41.18,
			"lon": -111.931,
			"elevation": "",
			"highest": 95,
			"p97": 88,
			"p90": 84,
			"p80": 79,
			"p70": 76,
			"p50": 69
		},
		"420901": {
			"name": "Cedar Mountain",
			"lat": 40.301,
			"lon": -112.777,
			"elevation": "",
			"highest": 107,
			"p97": 101,
			"p90": 93,
			"p80": 89,
			"p70": 86,
			"p50": 78
		},
		"420908": {
			"name": "Vernon",
			"lat": 40.099,
			"lon": -112.427,
			"elevation": "",
			"highest": 102,
			"p97": 97,
			"p90": 89,
			"p80": 84,
			"p70": 81,
			"p50": 73
		},
		"420911": {
			"name": "Aragonite",
			"lat": 40.597,
			"lon": -113.021,
			"elevation": "",
			"highest": 108,
			"p97": 105,
			"p90": 100,
			"p80": 95,
			"p70": 91,
			"p50": 86
		},
		"420914": {
			"name": "Rosebud",
			"lat": 41.61,
			"lon": -113.591,
			"elevation": "",
			"highest": 109,
			"p97": 100,
			"p90": 95,
			"p80": 91,
			"p70": 87,
			"p50": 82
		},
		"420915": {
			"name": "Clifton Flat",
			"lat": 40.113,
			"lon": -113.876,
			"elevation": "",
			"highest": 104,
			"p97": 100,
			"p90": 97,
			"p80": 93,
			"p70": 89,
			"p50": 81
		},
		"421101": {
			"name": "Pleasant Grove",
			"lat": 40.431,
			"lon": -111.75,
			"elevation": "",
			"highest": 105,
			"p97": 95,
			"p90": 91,
			"p80": 88,
			"p70": 85,
			"p50": 80
		}
	}
}, {
	"PSA": "GB26",
	"name": "Uinta-Wasatch",
	"matrix":{
      "green1":{
        "erc" : [[0,69],[70,200]],
        "fm" : [[0,100],[9,100]]
      },
      "yellow1": {
        "erc" : [[70,74],[75,200]],
        "fm" : [[0,8],[7,8]]
      },
      "brown1" : {
        "erc" : [75,200],
        "fm" : [0,6]
      }
    },
	"RAWS": {
		"420706": {
			"name": "Norway Flat",
			"lat": 40.55,
			"lon": -111.067,
			"elevation": "",
			"highest": 87,
			"p97": 76,
			"p90": 90,
			"p80": 64,
			"p70": 59,
			"p50": 52
		},
		"420912": {
			"name": "Otter Creek",
			"lat": 41.753,
			"lon": -111.281,
			"elevation": "",
			"highest": 104,
			"p97": 92,
			"p90": 90,
			"p80": 81,
			"p70": 79,
			"p50": 69
		},
		"421101": {
			"name": "Pleasant Grove",
			"lat": 40.431,
			"lon": -111.75,
			"elevation": "",
			"highest": 105,
			"p97": 95,
			"p90": 91,
			"p80": 88,
			"p70": 85,
			"p50": 80
		},
		"421103": {
			"name": "Rays Valley",
			"lat": 40.118,
			"lon": -111.275,
			"elevation": "",
			"highest": 95,
			"p97": 85,
			"p90": 78,
			"p80": 73,
			"p70": 70,
			"p50": 64
		}
	}
}, {
	"PSA": "GB27",
	"name": "Central Utah",
	"matrix":{
      "green1":{
        "erc" : [[0,83],[84,200]],
        "fm" : [[0,200],[7,200]]
      },
      "yellow1": {
        "erc" : [[84,88],[89,200]],
        "fm" : [[0,6],[6,6]]
      },
      "brown1" : {
        "erc" : [89,200],
        "fm" : [0,5]
      }
    },
	"RAWS": {
		"421501": {
			"name": "Sevier Reservoir",
			"lat": 39.583,
			"lon": -112,
			"elevation": "",
			"highest": 107,
			"p97": 103,
			"p90": 95,
			"p80": 91,
			"p70": 88,
			"p50": 83
		},
		"421502": {
			"name": "Mud Spring",
			"lat": 39.799,
			"lon": -112.272,
			"elevation": "",
			"highest": 105,
			"p97": 97,
			"p90": 91,
			"p80": 87,
			"p70": 85,
			"p50": 78
		},
		"421806": {
			"name": "Tule Valley",
			"lat": 39.35,
			"lon": -113.367,
			"elevation": "",
			"highest": 117,
			"p97": 107,
			"p90": 104,
			"p80": 100,
			"p70": 97,
			"p50": 90
		}
	}
}, {
	"PSA": "GB28",
	"name": "Fishlake-Henry Mountain",
	"matrix":{
      "green1":{
        "erc" : [[0,77],[78,200]],
        "fm" : [[0,200],[9,200]]
      },
      "yellow1": {
        "erc" : [[78,88],[89,200]],
        "fm" : [[0,8],[6,8]]
      },
      "brown1" : {
        "erc" : [89,200],
        "fm" : [0,5]
      }
    },
	"RAWS": {
		"421807": {
			"name": "Horse Hollow",
			"lat": 38.664,
			"lon": -112.683,
			"elevation": "",
			"highest": 113,
			"p97": 97,
			"p90": 95,
			"p80": 91,
			"p70": 89,
			"p50": 81
		},
		"421905": {
			"name": "Lost Creek",
			"lat": 38.771,
			"lon": -111.863,
			"elevation": "",
			"highest": 107,
			"p97": 95,
			"p90": 86,
			"p80": 82,
			"p70": 70,
			"p50": 67
		},
		"422610": {
			"name": "Larb Hollow",
			"lat": 38.016,
			"lon": -111.32,
			"elevation": "",
			"highest": 115,
			"p97": 100,
			"p90": 90,
			"p80": 80,
			"p70": 75,
			"p50": 68
		},
		"422611": {
			"name": "Henry Mountain",
			"lat": 38.034,
			"lon": -110.825,
			"elevation": "",
			"highest": 109,
			"p97": 99,
			"p90": 91,
			"p80": 83,
			"p70": 79,
			"p50": 68
		}
	}
}, {
	"PSA": "GB29",
	"name": "Uinta Basin",
	"matrix":{
      "green1":{
        "erc" : [[0,69],[70,200]],
        "fm" : [[0,200],[11,200]]
      },
      "yellow1": {
        "erc" : [[70,76],[77,200]],
        "fm" : [[0,10],[8,10]]
      },
      "brown1" : {
        "erc" : [77,200],
        "fm" : [0,7]
      }
    },
	"RAWS": {
		"421301": {
			"name": "Yellowstone",
			"lat": 40.544,
			"lon": -110.33,
			"elevation": "",
			"highest": 103,
			"p97": 93,
			"p90": 84,
			"p80": 76,
			"p70": 66,
			"p50": 65
		},
		"421304": {
			"name": "Five Mile",
			"lat": 39.881,
			"lon": -110.266,
			"elevation": "",
			"highest": 110,
			"p97": 99,
			"p90": 91,
			"p80": 85,
			"p70": 80,
			"p50": 73
		},
		"421305": {
			"name": "Horse Ridge",
			"lat": 39.934,
			"lon": -110.861,
			"elevation": "",
			"highest": 101,
			"p97": 92,
			"p90": 84,
			"p80": 79,
			"p70": 74,
			"p50": 67
		},
		"421406": "Upper PR Canyon",
		"421407": "Winter Ridge",
		"421415": {
			"name": "Fort Duchesne",
			"lat": 40.285,
			"lon": -109.862,
			"elevation": "",
			"highest": 102,
			"p97": 95,
			"p90": 87,
			"p80": 80,
			"p70": 77,
			"p50": 69
		},
		"421416": {
			"name": "Wildhorse",
			"lat": 39.545,
			"lon": -109.908,
			"elevation": "",
			"highest": 114,
			"p97": 103,
			"p90": 94,
			"p80": 85,
			"p70": 80,
			"p50": 69
		}
	}
}, {
	"PSA": "GB30",
	"name": "Manti",
	"matrix":{
      "green1":{
        "erc" : [[0,66],[67,200]],
        "fm" : [[0,200],[11,200]]
      },
      "yellow1": {
        "erc" : [[67,78],[79,200]],
        "fm" : [[0,10],[8,10]]
      },
      "brown1" : {
        "erc" : [79,200],
        "fm" : [0,7]
      }
    },
	"RAWS": {
		"421602": {
			"name": "Joes Valley",
			"lat": 39.309,
			"lon": -111.323,
			"elevation": "",
			"highest": 105,
			"p97": 99,
			"p90": 89,
			"p80": 83,
			"p70": 80,
			"p50": 72
		}
	}
}, {
	"PSA": "GB31",
	"name": "Castle",
	"matrix":{
      "green1":{
        "erc" : [[0,82],[83,200]],
        "fm" : [[0,100],[8,200]]
      },
      "yellow1": {
        "erc" : [[83,91],[92,200]],
        "fm" : [[0,7],[7,7]]
      },
      "brown1" : {
        "erc" : [92,200],
        "fm" : [0,6]
      }
    },
	"RAWS": {
		"421405": {
			"name": "McCook",
			"lat": 39.634,
			"lon": -109.265,
			"elevation": "",
			"highest": 107,
			"p97": 98,
			"p90": 91,
			"p80": 84,
			"p70": 79,
			"p50": 70
		},
		"421702": {
			"name": "Bruin Point",
			"lat": 39.608,
			"lon": -110.292,
			"elevation": "",
			"highest": 97,
			"p97": 91,
			"p90": 82,
			"p80": 78,
			"p70": 72,
			"p50": 61
		},
		"422002": {
			"name": "Flat Top",
			"lat": 39.338,
			"lon": -110.6,
			"elevation": "",
			"highest": 115,
			"p97": 105,
			"p90": 99,
			"p80": 94,
			"p70": 91,
			"p50": 84
		},
		"422102": {
			"name": "Bryson",
			"lat": 39.275,
			"lon": -109.217,
			"elevation": "",
			"highest": 115,
			"p97": 104,
			"p90": 97,
			"p80": 91,
			"p70": 88,
			"p50": 82
		}
	}
}, {
	"PSA": "GB32",
	"name": "Canyon",
	"matrix":{
      "green1":{
        "erc" : [[0,70],[71,200]],
        "fm" : [[0,100],[10,200]]
      },
      "yellow1": {
        "erc" : [[71,90],[91,200]],
        "fm" : [[0,9],[8,9]]
      },
      "brown1" : {
        "erc" : [91,200],
        "fm" : [2,7]
      }
    },
	"RAWS": {
		"422710": {
			"name": "North Long Point",
			"lat": 37.838,
			"lon": -109.839,
			"elevation": "",
			"highest": 110,
			"p97": 95,
			"p90": 88,
			"p80": 80,
			"p70": 72,
			"p50": 61
		},
		"422711": {
			"name": "Big Indian",
			"lat": 38.221,
			"lon": -109.279,
			"elevation": "",
			"highest": 115,
			"p97": 103,
			"p90": 96,
			"p80": 91,
			"p70": 86,
			"p50": 77
		},
		"422712": {
			"name": "Kane Gulch",
			"lat": 37.525,
			"lon": -109.892,
			"elevation": "",
			"highest": 107,
			"p97": 97,
			"p90": 94,
			"p80": 86,
			"p70": 81,
			"p50": 73
		}
	}
}, {
	"PSA": "GB33",
	"name": "Southwest Utah Desert",
	"matrix":{
      "green1":{
        "erc" : [[0,83],[84,200]],
        "fm" : [[0,200],[7,200]]
      },
      "yellow1": {
        "erc" : [[84,93],[94,200]],
        "fm" : [[0,6],[6,6]]
      },
      "brown1" : {
        "erc" : [94,200],
        "fm" : [0,5]
      }
    },
	"RAWS": {
		"422203": {
			"name": "Brimstone",
			"lat": 38.308,
			"lon": -113.385,
			"elevation": "",
			"highest": 116,
			"p97": 105,
			"p90": 97,
			"p80": 89,
			"p70": 86,
			"p50": 81
		},
		"422502": {
			"name": "Jensen Spring",
			"lat": 38.033,
			"lon": -113.517,
			"elevation": "",
			"highest": 118,
			"p97": 106,
			"p90": 99,
			"p80": 94,
			"p70": 90,
			"p50": 82
		},
		"422803": {
			"name": "Enterprise",
			"lat": 37.559,
			"lon": -113.717,
			"elevation": "",
			"highest": 112,
			"p97": 100,
			"p90": 91,
			"p80": 86,
			"p70": 81,
			"p50": 74
		}
	}
}, {
	"PSA": "GB34",
	"name": "Dixie-Bryce",
	"matrix":{
      "green1":{
        "erc" : [[0,70],[71,200]],
        "fm" : [[0,200],[10,200]]
      },
      "yellow1": {
        "erc" : [[71,80],[81,200]],
        "fm" : [[0,9],[8,9]]
      },
      "brown1" : {
        "erc" : [81,200],
        "fm" : [0,7]
      }
    },
	"RAWS": {
		"422503": {
			"name": "Cottonwood",
			"lat": 37.984,
			"lon": -112.639,
			"elevation": "",
			"highest": 109,
			"p97": 103,
			"p90": 97,
			"p80": 90,
			"p70": 85,
			"p50": 74
		},
		"422604": {
			"name": "Assay Bench",
			"lat": 37.5,
			"lon": -112.5,
			"elevation": "",
			"highest": 108,
			"p97": 95,
			"p90": 87,
			"p80": 81,
			"p70": 76,
			"p50": 66
		},
		"422606": {
			"name": "Buck Flat",
			"lat": 37.9,
			"lon": -111.683,
			"elevation": "",
			"highest": 114,
			"p97": 103,
			"p90": 92,
			"p80": 83,
			"p70": 80,
			"p50": 71
		},
		"422608": {
			"name": "Tom Best",
			"lat": 37.829,
			"lon": -112.119,
			"elevation": "",
			"highest": 108,
			"p97": 94,
			"p90": 90,
			"p80": 81,
			"p70": 76,
			"p50": 50
		},
		"422609": {
			"name": "Bryce Canyon",
			"lat": 37.642,
			"lon": -112.172,
			"elevation": "",
			"highest": 100,
			"p97": 90,
			"p90": 82,
			"p80": 73,
			"p70": 70,
			"p50": 58
		},
		"422807": {
			"name": "Lava Point",
			"lat": 37.392,
			"lon": -113.039,
			"elevation": "",
			"highest": 95,
			"p97": 86,
			"p90": 80,
			"p80": 73,
			"p70": 68,
			"p50": 61
		}
	}
}, {
	"PSA": "GB35",
	"matrix":{
			"green":[[[61,1],[89,13]],[[90,7],[119,13]]],
			"green1":{
				"erc" : [[61,89],[90,119]],
				"fm" : [[1,13],[7,13]]
			},
			"yellow": [[[90,1],[102,6]],[[103,5],[119,6]]],
			"yellow1": {
				"erc" : [[90,102],[103,119]],
				"fm" : [[1,6],[5,6]]
			},
			"brown" : [[103,1],[119,8]],
			"brown1" : {
				"erc" : [103,119],
				"fm" : [1,4]
			}
		},
	"name": "Arizona Strip/Monuments",
	"RAWS": {
		"20107": {
			"name": "Logan",
			"lat": 36.353,
			"lon": -113.199,
			"elevation": "",
			"highest": 116,
			"p97": 103,
			"p90": 97,
			"p80": 90,
			"p70": 84,
			"p50": 76
		},
		"20108": {
			"name": "Olaf",
			"lat": 36.5,
			"lon": -113.817,
			"elevation": "",
			"highest": 124,
			"p97": 117,
			"p90": 113,
			"p80": 108,
			"p70": 104,
			"p50": 98
		},
		"20109": {
			"name": "Tweedy",
			"lat": 36.583,
			"lon": -113.717,
			"elevation": "",
			"highest": 122,
			"p97": 111,
			"p90": 106,
			"p80": 103,
			"p70": 95,
			"p50": 90
		},
		"20114": {
			"name": "Blackrock",
			"lat": 36.79,
			"lon": -113.747,
			"elevation": "",
			"highest": 119,
			"p97": 104,
			"p90": 98,
			"p80": 92,
			"p70": 88,
			"p50": 80
		},
		"20223": {
			"name": "Gunsight",
			"lat": 36.704,
			"lon": -112.583,
			"elevation": "",
			"highest": 116,
			"p97": 111,
			"p90": 105,
			"p80": 98,
			"p70": 93,
			"p50": 85
		},
		"422805": {
			"name": "White Reef",
			"lat": 37.216,
			"lon": -113.378,
			"elevation": "",
			"highest": 119,
			"p97": 115,
			"p90": 110,
			"p80": 104,
			"p70": 101,
			"p50": 95
		},
		"422806": {
			"name": "Badger Spring",
			"lat": 37.152,
			"lon": -113.951,
			"elevation": "",
			"highest": 126,
			"p97": 115,
			"p90": 110,
			"p80": 105,
			"p70": 101,
			"p50": 95
		}
	}
}]